City_ID,City,Lat,Lng,Max Temp,Humidity,Cloudiness,Wind Speed,Country,Date
0,papatowai,-46.5619,169.4708,284.59,79,28,2.58,NZ,1686620685
1,nchelenge,-9.3451,28.734,291.92,60,28,2.38,ZM,1686620685
2,tazovsky,67.4667,78.7,273.96,93,100,8.12,RU,1686620685
3,mount gambier,-37.8333,140.7667,285.07,82,100,4.88,AU,1686620685
4,olonkinbyen,70.9221,-8.7187,275.2,87,100,8.86,SJ,1686620686
5,anadyr,64.75,177.4833,290.43,48,0,4.0,RU,1686620686
6,adamstown,-25.066,-130.1015,293.56,64,28,3.45,PN,1686620686
7,kimbe,-5.5502,150.1429,306.05,56,30,1.48,PG,1686620686
8,al jawf,29.5,38.75,297.32,32,0,2.55,SA,1686620686
9,bada,51.392,109.8717,296.52,52,100,1.47,RU,1686620687
10,port mathurin,-19.6833,63.4167,297.9,71,4,6.74,MU,1686620269
11,morton,46.7722,-101.2615,296.43,55,10,1.3,US,1686620687
12,petropavlovsk-kamchatsky,53.0452,158.6483,295.48,35,0,3.0,RU,1686620276
13,puerto natales,-51.7236,-72.4875,274.86,96,100,1.96,CL,1686620272
14,hamilton,39.1834,-84.5333,290.84,61,75,4.12,US,1686620484
15,ushuaia,-54.8,-68.3,277.96,75,40,12.86,AR,1686620688
16,margaret river,-33.95,115.0667,288.92,69,100,7.38,AU,1686620688
17,belyy yar,53.6039,91.3903,290.09,72,0,2.0,RU,1686620688
18,harper,4.375,-7.7169,298.55,77,96,3.84,LR,1686620689
19,darwin,-12.4611,130.8418,301.98,54,100,4.47,AU,1686620665
20,bethel,41.3712,-73.414,293.2,89,100,3.6,US,1686620620
21,palmer,42.1584,-72.3287,293.45,81,100,3.09,US,1686620689
22,coquimbo,-29.9533,-71.3436,284.0,81,75,1.54,CL,1686620637
23,blackmans bay,-43.0167,147.3167,284.67,79,100,3.42,AU,1686620690
24,itoman,26.1247,127.6694,301.58,96,75,4.63,JP,1686620690
25,holualoa,19.6228,-155.9522,300.06,83,40,4.63,US,1686620690
26,edinburgh of the seven seas,-37.0676,-12.3116,288.25,90,100,8.37,SH,1686620691
27,stanley,54.868,-1.6985,284.65,90,40,1.03,GB,1686620691
28,whitehorse,60.7161,-135.0538,290.58,21,40,5.66,CA,1686620691
29,kirensk,57.7853,108.1119,288.06,36,100,6.07,RU,1686620692
30,shimoda,34.6667,138.95,299.32,85,95,2.91,JP,1686620692
31,albany,42.6001,-73.9662,295.47,77,100,1.34,US,1686620500
32,walvis bay,-22.9575,14.5053,283.68,100,0,2.06,NA,1686620692
33,west island,-12.1568,96.8225,300.14,83,40,8.8,CC,1686620693
34,hithadhoo,-0.6,73.0833,301.88,71,54,4.16,MV,1686620693
35,hasaki,35.7333,140.8333,299.42,88,98,6.23,JP,1686620693
36,brookings,44.3114,-96.7984,294.34,37,0,3.6,US,1686620531
37,jamestown,42.097,-79.2353,286.92,78,100,4.63,US,1686620556
38,yuzhno-kurilsk,44.0306,145.8556,284.8,97,100,3.4,RU,1686620694
39,port-aux-francais,-49.35,70.2167,279.4,89,100,13.89,TF,1686620694
40,kodiak,57.79,-152.4072,284.88,54,0,7.2,US,1686620694
41,suntar,62.1444,117.6319,288.16,32,9,3.53,RU,1686620694
42,sao joao da barra,-21.6403,-41.0511,295.96,87,89,2.87,BR,1686620695
43,krasnyy chikoy,50.3643,108.7512,298.35,39,100,1.53,RU,1686620695
44,port elizabeth,-33.918,25.5701,287.31,65,0,4.63,ZA,1686620695
45,tangalle,6.024,80.7911,300.24,79,100,5.56,LK,1686620696
46,utrik,11.2278,169.8474,300.88,80,31,8.23,MH,1686620696
47,thunder bay,48.4001,-89.3168,292.14,55,75,2.57,CA,1686620648
48,moree,-29.4667,149.85,293.26,50,74,4.07,AU,1686620696
49,kendari,-3.945,122.4989,298.55,92,100,0.57,ID,1686620697
50,pindamonhangaba,-22.9239,-45.4617,291.29,94,18,3.09,BR,1686620697
51,avarua,-21.2078,-159.775,299.18,78,100,6.69,CK,1686620697
52,iqaluit,63.7506,-68.5145,274.0,69,75,4.63,CA,1686620697
53,murmashi,68.8154,32.8115,284.38,100,0,0.0,RU,1686620698
54,borgarnes,64.5383,-21.9206,282.18,81,32,1.15,IS,1686620698
55,hassi messaoud,31.6804,6.0729,302.07,23,0,2.06,DZ,1686620698
56,nar'yan-mar,67.6713,53.087,281.49,69,72,3.86,RU,1686620698
57,waitangi,-43.9535,-176.5597,285.27,89,94,1.79,NZ,1686620699
58,zdvinsk,54.7021,78.661,286.05,55,100,2.62,RU,1686620699
59,grytviken,-54.2811,-36.5092,270.54,85,94,4.04,GS,1686620699
60,bereket,39.2446,55.5154,301.93,29,0,1.84,TM,1686620699
61,galliano,29.4422,-90.2992,302.15,78,0,2.57,US,1686620700
62,yellowknife,62.456,-114.3525,281.44,66,75,2.57,CA,1686620541
63,papao,-17.75,-149.55,301.97,69,5,9.02,PF,1686620700
64,la passe,45.5549,-0.8967,291.31,92,100,2.47,FR,1686620700
65,chonchi,-42.6128,-73.8092,277.71,95,18,0.85,CL,1686620701
66,talnakh,69.4865,88.3972,281.6,73,97,1.83,RU,1686620701
67,newman,37.3138,-121.0208,302.34,52,48,2.24,US,1686620701
68,hopelchen,19.7667,-89.85,303.35,62,47,2.39,MX,1686620702
69,cobija,-11.0267,-68.7692,295.3,99,99,1.92,BO,1686620702
70,hawaiian paradise park,19.5933,-154.9731,301.88,67,40,2.57,US,1686620703
71,longyearbyen,78.2186,15.6401,275.06,87,75,4.63,SJ,1686620703
72,ribeira grande,38.5167,-28.7,292.47,97,8,1.79,PT,1686620703
73,fort mcmurray,56.7268,-111.381,293.92,49,0,1.03,CA,1686620704
74,ancud,-41.8697,-73.8203,277.9,90,41,2.61,CL,1686620704
75,lerwick,60.1545,-1.1494,285.15,93,100,3.15,GB,1686620704
76,north battleford,52.7834,-108.2847,298.2,57,0,3.09,CA,1686620705
77,college,64.8569,-147.8028,291.33,39,75,3.6,US,1686620705
78,punta arenas,-53.15,-70.9167,279.21,70,20,8.75,CL,1686620591
79,bilibino,68.0546,166.4372,281.93,88,100,7.1,RU,1686620706
80,poronaysk,49.2167,143.1167,281.35,98,100,1.67,RU,1686620706
81,kruisfontein,-34.0033,24.7314,283.64,69,86,4.82,ZA,1686620706
82,tiksi,71.6872,128.8694,275.35,96,100,3.0,RU,1686620707
83,santa cruz,-17.8,-63.1667,286.85,58,100,8.23,BO,1686620707
84,atafu village,-8.5421,-172.5159,301.81,75,45,6.71,TK,1686620707
85,port alfred,-33.5906,26.891,286.81,66,100,6.32,ZA,1686620707
86,rajo khanani,24.9841,68.8536,304.47,62,84,7.82,PK,1686620708
87,gizo,-8.103,156.8419,301.85,76,12,3.73,SB,1686620708
88,puerto santa,-8.9906,-78.6456,294.46,82,20,6.25,PE,1686620708
89,champerico,14.3,-91.9167,302.1,77,100,2.96,GT,1686620709
90,turpan,42.9333,89.1667,308.24,16,100,3.17,CN,1686620709
91,ascension,30.2169,-90.9001,303.15,77,40,1.54,US,1686620709
92,argo,37.6333,22.7333,291.36,77,81,1.44,GR,1686620709
93,puerto ayora,-0.7393,-90.3518,299.57,90,73,4.02,EC,1686620710
94,severo-yeniseyskiy,60.3725,93.0408,282.49,74,98,2.59,RU,1686620710
95,ubari,26.5921,12.7805,299.77,30,0,4.04,LY,1686620710
96,keflavik,64.0049,-22.5624,282.1,87,20,1.03,IS,1686620710
97,al kharijah,25.4514,30.5464,302.9,26,0,1.45,EG,1686620711
98,anekal,12.7,77.7,295.63,78,88,6.59,IN,1686620711
99,la sarre,48.8002,-79.1996,288.18,88,100,2.23,CA,1686620711
100,georgetown,5.4112,100.3354,304.11,74,20,4.12,MY,1686620711
101,bel ombre,-4.6167,55.4167,300.06,74,40,6.17,SC,1686620712
102,banda aceh,5.5577,95.3222,302.56,65,62,4.73,ID,1686620712
103,rio san juan,19.6439,-70.0763,301.57,86,10,6.67,DO,1686620712
104,nadym,65.5333,72.5167,277.27,57,100,7.04,RU,1686620712
105,wailua homesteads,22.0669,-159.378,301.39,78,40,6.17,US,1686620713
106,vilyuysk,63.7553,121.6247,288.0,31,1,5.33,RU,1686620713
107,qaqortoq,60.7167,-46.0333,279.86,76,100,2.71,GL,1686620713
108,tisul',55.7611,88.3122,284.72,78,100,2.5,RU,1686620714
109,slave lake,55.2834,-114.769,298.14,41,75,4.63,CA,1686620669
110,vadso,70.0744,29.7487,282.24,61,100,5.14,NO,1686620714
111,saudarkrokur,65.7461,-19.6394,282.08,81,9,3.01,IS,1686620714
112,al ghayzah,16.2079,52.176,301.1,92,100,1.16,YE,1686620715
113,bredasdorp,-34.5322,20.0403,287.1,73,67,11.33,ZA,1686620715
114,kavaratti,10.5669,72.642,302.66,75,100,9.51,IN,1686620715
115,buchanan,5.8808,-10.0467,298.19,82,92,3.22,LR,1686620715
116,ilulissat,69.2167,-51.1,275.16,75,75,3.09,GL,1686620716
117,vorgashor,67.5833,63.95,280.26,57,100,5.0,RU,1686620716
118,lompoc,34.6391,-120.4579,293.71,78,100,3.13,US,1686620487
119,portland,45.5234,-122.6762,305.47,42,20,5.66,US,1686620582
120,isafjordur,66.0755,-23.124,280.89,81,52,3.15,IS,1686620717
121,nizhneudinsk,54.9076,99.0276,283.56,96,100,1.35,RU,1686620717
122,kattivakkam,13.2167,80.3167,303.2,76,68,3.87,IN,1686620717
123,namibe,-15.1961,12.1522,289.02,80,4,1.59,AO,1686620718
124,palanga,55.9175,21.0686,285.16,62,0,2.06,LT,1686620718
125,ust-nera,64.5667,143.2,280.62,90,100,4.44,RU,1686620718
126,tengrela,10.4869,-6.4097,296.84,81,73,1.83,CI,1686620718
127,cam pha mines,21.0167,107.3,302.79,70,92,1.32,VN,1686620719
128,san rafael,-34.6177,-68.3301,277.89,30,0,2.84,AR,1686620715
129,new plymouth,-39.0667,174.0833,287.9,100,1,1.23,NZ,1686620431
130,saipan,15.1355,145.701,304.54,100,20,6.17,MP,1686620720
131,san antonio de pale,-1.4014,5.6325,297.46,89,99,3.4,GQ,1686620720
132,mersing,2.4312,103.8405,300.1,89,20,1.54,MY,1686620720
133,praia da vitoria,38.7333,-27.0667,292.29,94,20,2.68,PT,1686620720
134,clover,35.1113,-81.2265,295.03,58,0,1.54,US,1686620721
135,novyy turtkul',41.55,61.0167,293.1,17,3,5.11,UZ,1686620721
136,revda,56.801,59.9303,280.67,58,0,1.4,RU,1686620721
137,jolo,6.05,121.0167,304.54,59,16,1.54,PH,1686620722
138,liuhe,42.2401,125.7172,292.21,78,99,1.35,CN,1686620722
139,la'ie,21.6477,-157.9253,304.13,70,0,2.68,US,1686620722
140,bonthe,7.5264,-12.505,297.93,88,100,2.46,SL,1686620722
141,invercargill,-46.4,168.35,284.66,83,72,1.82,NZ,1686620435
142,udachny,66.4167,112.4,289.51,35,19,7.02,RU,1686620723
143,havre,49.5833,0.3333,289.37,100,100,1.54,FR,1686620723
144,padang,-0.9492,100.3543,300.18,71,88,0.62,ID,1686620428
145,nova vicosa,-17.8919,-39.3719,295.48,87,0,3.76,BR,1686620724
146,kapuskasing,49.4169,-82.4331,292.15,72,100,1.54,CA,1686620666
147,solnechnyy,50.7214,136.6319,293.66,43,4,2.86,RU,1686620724
148,dudinka,69.4058,86.1778,281.83,61,80,2.73,RU,1686620725
149,lensk,60.7253,114.9278,288.59,28,4,1.92,RU,1686620725
150,south hedland,-20.4089,118.5983,296.11,23,40,8.75,AU,1686620725
151,el granada,37.5027,-122.4694,295.27,74,100,7.72,US,1686620559
152,tongliao,43.6125,122.2653,297.05,43,5,2.28,CN,1686620726
153,lejanias,3.5251,-74.0216,293.78,96,99,1.84,CO,1686620726
154,codrington,-38.2667,141.9667,285.92,75,100,6.92,AU,1686620727
155,alaminos,14.0639,121.2465,304.45,63,100,2.01,PH,1686620727
156,murun-kuren,49.6342,100.1625,292.32,60,100,4.46,MN,1686620727
157,san patricio,28.017,-97.5169,302.69,83,79,6.5,US,1686620728
158,ugoofaaru,5.6667,73.0,301.9,79,100,7.63,MV,1686620728
159,inarajan village,13.2736,144.7484,303.37,79,10,7.76,GU,1686620728
160,owo,7.1962,5.5868,295.15,96,99,0.98,NG,1686620728
161,cabo san lucas,22.8909,-109.9124,304.76,45,0,2.57,MX,1686620610
162,ta`u,-14.2336,-169.5144,300.75,74,43,7.47,AS,1686620729
163,viveiro,43.6623,-7.5934,289.51,93,100,2.16,ES,1686620730
164,plastun,44.7561,136.2939,286.56,89,100,2.43,RU,1686620730
165,enewetak,11.3474,162.3373,301.0,81,98,8.85,MH,1686620730
166,mirny,62.5353,113.9611,287.17,30,55,0.89,RU,1686620731
167,tura,25.5198,90.2201,299.55,87,9,2.52,IN,1686620731
168,greenfield,42.9614,-88.0126,289.51,52,79,3.83,US,1686620732
169,jalai nur,49.45,117.7,301.92,24,93,2.36,CN,1686620732
170,sengkang,-4.1279,120.0297,302.43,69,92,3.27,ID,1686620732
171,souillac,-20.5167,57.5167,296.36,94,40,2.06,MU,1686620732
172,belmonte,-15.8631,-38.8828,296.44,87,3,1.94,BR,1686620733
173,altamont,42.2068,-121.7372,300.06,28,0,7.72,US,1686620733
174,kingston,17.997,-76.7936,301.68,74,20,5.14,JM,1686620681
175,dieppe,49.75,1.1667,288.81,94,7,0.45,FR,1686620733
176,saint-francois,46.4154,3.9054,286.86,100,100,0.51,FR,1686620734
177,manvi,15.9833,77.05,301.14,60,10,6.2,IN,1686620734
178,sovetskaya gavan',48.9723,140.2878,282.94,96,100,1.71,RU,1686620734
179,lihue,21.9789,-159.3672,301.73,72,40,6.17,US,1686620734
180,rupert,42.6191,-113.6772,295.12,49,0,2.06,US,1686620735
181,okuta,9.2167,3.1833,295.12,83,97,1.25,NG,1686620735
182,gargzdai,55.7128,21.4033,285.03,83,92,1.98,LT,1686620735
183,ambanja,-13.6833,48.45,293.72,93,8,1.58,MG,1686620736
184,sandnessjoen,66.0217,12.6316,282.44,98,75,3.09,NO,1686620736
185,vila velha,-20.3297,-40.2925,297.12,89,40,4.12,BR,1686620736
186,mafinga,-7.25,35.0667,289.81,84,19,1.1,TZ,1686620737
187,tindouf,27.6711,-8.1474,293.4,68,0,9.26,DZ,1686620737
188,hermanus,-34.4187,19.2345,288.6,86,100,13.14,ZA,1686620737
189,nova sintra,14.8667,-24.7167,294.31,85,100,9.43,CV,1686620737
190,mount isa,-20.7333,139.5,301.02,18,7,4.63,AU,1686620738
191,meulaboh,4.1363,96.1285,300.96,72,49,1.46,ID,1686620738
192,phatthalung,7.5,100.0833,303.95,59,42,2.44,TH,1686620738
193,thompson,55.7435,-97.8558,293.42,50,99,3.78,CA,1686620739
194,mwene-ditu,-7.0,23.45,292.63,61,15,1.29,CD,1686620739
195,selfoss,63.9331,-20.9971,279.84,80,3,2.18,IS,1686620739
196,carnarvon,-24.8667,113.6333,290.58,36,0,7.38,AU,1686620739
197,cabedelo,-6.9811,-34.8339,297.52,85,25,5.63,BR,1686620740
198,mil'kovo,55.6078,37.7956,281.88,79,1,2.9,RU,1686620740
199,as sulayyil,20.4607,45.5779,305.29,18,100,6.01,SA,1686620740
200,hadibu,12.65,54.0333,301.24,81,100,9.82,YE,1686620740
201,bonnyville,54.2668,-110.735,296.77,59,8,1.67,CA,1686620741
202,minas de marcona,-15.2119,-75.1103,285.47,85,83,8.36,PE,1686620741
203,touros,-5.1989,-35.4608,297.33,89,3,4.52,BR,1686620597
204,cruzeiro do sul,-29.5128,-51.9853,281.21,91,30,0.78,BR,1686620741
205,colonia,50.9333,6.95,292.51,52,0,1.54,DE,1686620528
206,dickinson,29.4608,-95.0513,303.22,81,0,4.63,US,1686620640
207,haiku-pauwela,20.9219,-156.3051,303.16,48,40,9.26,US,1686620742
208,tofol,5.3248,163.0078,302.03,79,100,3.6,FM,1686620742
209,morant bay,17.8815,-76.4093,301.94,85,23,5.0,JM,1686620742
210,poyarkovo,49.6,128.6833,297.69,59,19,2.27,RU,1686620743
211,gubkinskiy,64.434,76.5026,278.77,60,6,8.53,RU,1686620743
212,guatrache,-37.6678,-63.5302,277.18,43,0,1.51,AR,1686620743
213,chahar burj,34.2448,62.1917,297.75,20,0,1.63,AF,1686620744
214,laguna,38.421,-121.4238,299.44,54,0,3.09,US,1686620744
215,balikesir,39.75,28.0,289.13,82,40,4.12,TR,1686620457
216,isangel,-19.55,169.2667,298.21,78,100,2.06,VU,1686620744
217,afaahiti,-17.75,-149.2833,301.08,69,23,8.48,PF,1686620745
218,tsaratanana,-16.7833,47.65,291.27,70,0,1.68,MG,1686620745
219,ligaya,12.6599,120.8923,302.93,71,100,1.65,PH,1686620745
220,illizi,26.4833,8.4667,304.04,17,0,4.88,DZ,1686620745
221,aasiaat,68.7098,-52.8699,272.33,84,42,4.31,GL,1686620746
222,miyaly,48.8844,53.7836,297.38,39,94,3.38,KZ,1686620746
223,shaowu,27.3409,117.4831,297.71,87,100,0.99,CN,1686620746
224,pisco,-13.7,-76.2167,293.18,73,2,4.12,PE,1686620746
225,kanggye,40.9695,126.5852,292.31,78,100,1.19,KP,1686620747
226,juli,-16.2167,-69.45,277.25,48,61,1.15,PE,1686620747
227,new norfolk,-42.7826,147.0587,285.33,79,91,1.54,AU,1686620747
228,mangrol,21.1167,70.1167,302.24,83,100,13.92,IN,1686620747
229,aberdeen,57.1437,-2.0981,289.07,96,52,1.03,GB,1686620471
230,lebu,-37.6167,-73.65,281.01,74,0,6.29,CL,1686620748
231,flin flon,54.7682,-101.865,296.49,29,2,4.19,CA,1686620462
232,constantia,44.1833,28.65,285.76,84,38,6.93,RO,1686620748
233,mareeba,-17.0,145.4333,298.39,71,54,2.09,AU,1686620749
234,tolanaro,-25.0319,46.9987,291.19,94,20,0.0,MG,1686620749
235,lodhikheda,21.5833,78.8333,306.56,37,96,4.5,IN,1686620749
236,feijo,-8.1642,-70.3536,295.78,98,35,0.66,BR,1686620749
237,badger,64.8,-147.5333,291.29,40,100,3.6,US,1686620750
238,soio,-6.1349,12.3689,295.61,90,20,2.87,AO,1686620750
239,betio village,1.358,172.9211,303.17,79,92,5.92,KI,1686620751
240,korla,41.7597,86.1469,305.18,19,97,5.32,CN,1686620751
241,kalengwa,-13.4659,25.0027,286.47,57,23,1.06,ZM,1686620752
242,saint-germain-du-puy,47.1,2.4833,291.3,100,70,1.54,FR,1686620752
243,melfort,52.8667,-104.6177,299.22,41,100,3.09,CA,1686620752
244,dryden,49.7833,-92.7503,295.31,40,0,2.06,CA,1686620752
245,cody,44.5263,-109.0565,290.6,80,75,2.06,US,1686620671
246,labytnangi,66.6572,66.4183,280.66,49,99,3.66,RU,1686620753
247,mahibadhoo,3.7833,72.9667,301.93,77,86,6.81,MV,1686620753
248,petukhovo,55.0692,67.9019,284.15,56,100,3.89,RU,1686620754
249,geraldton,-28.7667,114.6,287.38,72,0,5.14,AU,1686620754
250,kailua-kona,19.6406,-155.9956,302.13,83,40,4.63,US,1686620755
251,alofi,-19.0595,-169.9187,297.09,88,100,3.09,NU,1686620755
252,nagornyy,52.7959,83.5498,291.11,78,28,2.32,RU,1686620755
253,sept-iles,50.2001,-66.3821,291.51,63,100,1.03,CA,1686620727
254,broken hill,-31.95,141.4333,286.73,55,0,8.58,AU,1686620756
255,visby,57.6409,18.296,281.27,81,0,1.54,SE,1686620756
256,saynshand,44.8824,110.1163,299.94,18,8,3.05,MN,1686620756
257,vamospercs,47.5333,21.9,283.99,76,78,4.66,HU,1686620757
258,bouarfa,32.53,-1.95,294.2,54,0,6.15,MA,1686620757
259,lhasa,29.65,91.1,286.83,66,87,1.1,CN,1686620757
260,marsh harbour,26.5412,-77.0636,300.45,78,36,4.08,BS,1686620758
261,kourou,5.1552,-52.6478,298.18,90,77,2.85,GF,1686620758
262,lichinga,-13.3128,35.2406,288.2,77,0,0.0,MZ,1686620758
263,nantucket,41.2835,-70.0995,292.18,94,100,6.17,US,1686620729
264,crestview,30.7621,-86.5705,300.86,81,75,11.32,US,1686620759
265,tazacorte,28.629,-17.9293,294.69,85,100,5.14,ES,1686620759
266,tomatlan,19.9333,-105.25,298.76,79,23,1.93,MX,1686620759
267,iskateley,67.6803,53.1512,281.49,68,69,3.86,RU,1686620759
268,uturoa,-16.7333,-151.4333,300.42,69,25,6.94,PF,1686620759
269,chui,-33.6971,-53.4616,281.67,75,94,2.99,UY,1686620760
270,ilhabela,-23.7781,-45.3581,294.87,93,73,3.44,BR,1686620760
271,kashmor,28.4333,69.5833,308.14,40,0,6.85,PK,1686620760
272,dauphin,51.1494,-100.0502,299.23,53,0,2.06,CA,1686620489
273,tanout,14.9709,8.8879,303.35,44,5,3.6,NE,1686620761
274,ludwigslust,53.3167,11.5,286.94,74,0,2.66,DE,1686620761
275,mercedes,-34.6515,-59.4307,278.17,66,0,2.3,AR,1686620761
276,taltal,-25.4,-70.4833,286.12,80,0,0.94,CL,1686620762
277,tyukhtet,56.5389,89.3011,287.33,53,78,2.99,RU,1686620762
278,dondo,-19.6094,34.7431,291.88,70,24,2.62,MZ,1686620762
279,campos dos goytacazes,-21.75,-41.3,293.1,92,34,1.42,BR,1686620763
280,rybinsk,58.0446,38.8426,283.21,78,0,0.31,RU,1686620763
281,mahbubnagar,16.7333,77.9833,300.92,60,18,7.61,IN,1686620763
282,mohr,54.3528,9.7167,286.23,75,6,4.12,DE,1686620763
283,canico,32.6333,-16.85,292.99,82,20,3.09,PT,1686620764
284,richfield,44.8833,-93.283,299.29,33,20,4.12,US,1686620623
285,teluk nibung,3.001,99.8164,301.09,77,57,3.62,ID,1686620764
286,jaynagar,26.5833,86.15,304.74,55,0,4.51,IN,1686620764
287,ambalangoda,6.2355,80.0538,300.82,81,100,5.47,LK,1686620765
288,masterton,-40.9597,175.6575,285.86,68,17,3.55,NZ,1686620765
289,hovd,48.0056,91.6419,289.24,38,1,2.07,MN,1686620766
290,lautoka,-17.6167,177.4667,301.07,69,40,4.63,FJ,1686620766
291,pionerskiy,54.9508,20.2275,285.79,61,95,4.02,RU,1686620766
292,queenstown,-31.8976,26.8753,280.61,59,67,6.59,ZA,1686620766
293,karratha,-20.7377,116.8463,295.61,31,13,9.67,AU,1686620767
294,ulsteinvik,62.3432,5.8487,288.1,80,100,0.89,NO,1686620767
295,boende,-0.2167,20.8667,294.57,98,78,0.71,CD,1686620767
296,joensuu,62.6012,29.7632,286.42,50,0,3.6,FI,1686620768
297,aquiraz,-3.9014,-38.3911,301.2,85,1,3.86,BR,1686620768
298,tver,56.8619,35.8931,280.94,84,34,2.17,RU,1686620768
299,cloverdale,38.8055,-123.0172,298.26,62,47,2.68,US,1686620768
300,fale old settlement,-9.3852,-171.2468,301.6,77,12,6.53,TK,1686620769
301,maputo,-25.9653,32.5892,292.16,85,75,3.6,MZ,1686620769
302,merizo village,13.2658,144.6691,303.14,79,12,7.78,GU,1686620769
303,bhan,26.5583,67.7214,306.59,47,100,5.57,PK,1686620769
304,guaimaca,14.5333,-86.8167,295.52,89,100,1.8,HN,1686620684
305,gillette,44.2911,-105.5022,289.74,86,100,1.54,US,1686620517
306,mmabatho,-25.85,25.6333,276.13,81,0,2.57,ZA,1686620770
307,ercis,39.0287,43.3586,289.22,55,63,2.35,TR,1686620770
308,phak hai,14.4574,100.3699,303.72,60,98,5.17,TH,1686620770
309,saldanha,-33.0117,17.9442,287.88,84,100,8.05,ZA,1686620771
310,turtas,58.9417,69.1325,283.16,49,6,2.88,RU,1686620771
311,loboc,9.6383,124.0348,303.44,68,85,2.0,PH,1686620771
312,hammerfest,70.6634,23.6821,279.4,81,100,7.2,NO,1686620771
313,bamenda,5.9527,10.1582,290.67,98,100,0.95,CM,1686620772
314,east london,-33.0153,27.9116,289.35,46,89,8.5,ZA,1686620772
315,prince rupert,54.3161,-130.3201,287.98,79,100,9.26,CA,1686620772
316,fort irwin,35.2627,-116.6848,302.05,24,0,3.6,US,1686620772
317,santiago de cao,-7.9589,-79.2392,295.22,83,75,5.14,PE,1686620773
318,beitbridge,-22.2167,30.0,290.69,50,17,5.53,ZW,1686620773
319,qaisumah,28.3112,46.1273,304.13,18,0,2.06,SA,1686620773
320,douentza,14.9951,-2.9517,301.34,56,95,3.22,ML,1686620773
321,karasburg,-28.0167,18.75,278.47,87,0,3.26,NA,1686620773
322,shakawe,-18.3667,21.85,283.15,28,2,2.82,BW,1686620774
323,manacapuru,-3.2997,-60.6206,298.57,84,56,1.96,BR,1686620774
324,nuuk,64.1835,-51.7216,273.49,100,100,2.57,GL,1686620774
325,caribou,46.8606,-68.012,294.39,68,0,0.45,US,1686620775
326,vila franca do campo,37.7167,-25.4333,292.38,98,100,5.08,PT,1686620775
327,susuman,62.7833,148.1667,287.63,73,100,3.63,RU,1686620775
328,tenosique,17.4833,-91.4333,305.61,47,14,4.14,MX,1686620775
329,pandan,14.0453,124.1694,304.85,61,100,2.42,PH,1686620776
330,uttar char fasson,22.2332,90.7132,303.09,79,83,5.72,BD,1686620776
331,markovo,57.3206,107.0881,286.26,41,100,4.64,RU,1686620776
332,port lincoln,-34.7333,135.8667,287.12,57,92,10.39,AU,1686620777
333,williams lake,52.1415,-122.1445,301.91,22,40,4.12,CA,1686620777
334,acapulco de juarez,16.8634,-99.8901,304.05,74,40,3.09,MX,1686620778
335,marquelia,16.5833,-98.8167,301.69,76,96,1.68,MX,1686620779
336,howard springs,-12.497,131.047,302.49,30,100,4.68,AU,1686620779
337,la libertad,-2.2333,-80.9,298.58,81,97,4.13,EC,1686620779
338,carbonear,47.7332,-53.2148,281.06,91,100,7.52,CA,1686620780
339,radviliskis,55.8167,23.5333,284.18,62,95,3.09,LT,1686620780
340,kalavai,12.7703,79.42,303.94,52,87,5.62,IN,1686620780
341,ben gardane,33.1378,11.2197,297.88,50,89,3.26,TN,1686620781
342,puerto baquerizo moreno,-0.9,-89.6,299.11,82,24,5.33,EC,1686620781
343,pakokku,21.3333,95.1,303.49,61,74,5.62,MM,1686620781
344,crane,31.3974,-102.3501,306.74,12,1,4.48,US,1686620781
345,klyuchi,52.2667,79.1667,290.79,64,16,4.15,RU,1686620782
346,alice springs,-23.7,133.8833,291.05,31,0,4.63,AU,1686620782
347,valparaiso,-33.0393,-71.6273,277.95,100,0,2.57,CL,1686620782
348,palikir - national government center,6.9248,158.1611,304.56,66,100,5.14,FM,1686620782
349,seeb,23.6703,58.1891,307.2,36,0,1.03,OM,1686620783
350,aykhal,66.0,111.5,287.45,36,13,7.45,RU,1686620783
351,barakani,-12.1356,44.4317,297.37,74,14,1.63,KM,1686620783
352,martapura,-3.4167,114.85,303.2,74,20,4.12,ID,1686620783
353,kolonia,50.9333,6.95,292.51,52,0,1.54,DE,1686620566
354,shizunai-furukawacho,42.3339,142.3669,289.76,84,98,4.0,JP,1686620784
355,salekhard,66.53,66.6019,280.45,50,100,3.93,RU,1686620606
356,labuan bajo,-8.4964,119.8877,301.59,59,10,1.0,ID,1686620784
357,san luis de la loma,17.2706,-100.8939,301.53,74,5,3.46,MX,1686620785
358,ola,59.5833,151.2833,292.12,91,89,5.19,RU,1686620785
359,quchan,37.106,58.5095,294.9,32,0,0.13,IR,1686620785
360,yavatmal,20.4,78.1333,305.26,42,20,7.85,IN,1686620785
361,tual,-5.6667,132.75,299.99,82,100,9.25,ID,1686620786
362,jayapura,-2.5333,140.7,302.81,96,99,2.66,ID,1686620786
363,petrovsk,52.3064,45.3917,282.93,87,100,5.63,RU,1686620786
364,sao jose da coroa grande,-8.8978,-35.1478,298.14,84,18,4.88,BR,1686620786
365,katsuren-haebaru,26.3369,127.8719,301.58,96,75,2.06,JP,1686620787
366,mulchen,-37.7167,-72.2333,276.25,86,0,1.95,CL,1686620787
367,punta del este,-34.9667,-54.95,284.8,68,75,5.36,UY,1686620521
368,happy valley-goose bay,53.3168,-60.3315,289.32,48,100,1.54,CA,1686620787
369,anar darah,32.7587,61.654,300.01,15,0,4.31,AF,1686620788
370,prainha,-1.8,-53.48,296.4,97,24,1.33,BR,1686620788
371,zhangjiakou shi xuanhua qu,40.6103,115.0447,298.23,33,52,3.36,CN,1686620788
372,dunedin,-45.8742,170.5036,286.37,63,77,2.68,NZ,1686620627
373,gadzhiyevo,69.2551,33.3362,282.5,70,100,3.79,RU,1686620789
374,guiuan,11.0333,125.7247,302.48,72,100,4.51,PH,1686620789
375,penaranda de bracamonte,40.9011,-5.2003,287.23,88,51,1.86,ES,1686620790
376,bay roberts,47.5999,-53.2648,281.51,91,100,3.58,CA,1686620790
377,bikenibeu village,1.3673,173.1241,303.13,79,40,2.57,KI,1686620790
378,alaghsas,17.0187,8.0168,304.28,36,92,2.07,NE,1686620790
379,vilyuchinsk,52.9306,158.4028,297.3,46,0,1.56,RU,1686620791
380,arraial do cabo,-22.9661,-42.0278,295.19,91,4,3.38,BR,1686620791
381,al marj,32.488,20.8317,290.9,97,23,1.22,LY,1686620791
382,vallenar,-28.5708,-70.7581,282.95,80,0,0.44,CL,1686620573
383,sandwip,22.4678,91.4561,301.17,87,97,7.95,BD,1686620792
384,paradip garh,20.3167,86.6167,305.5,66,81,4.97,IN,1686620792
385,santa maria zolotepec,19.4158,-99.4944,298.01,20,20,6.69,MX,1686620792
386,nago,26.5881,127.9761,301.62,97,100,6.12,JP,1686620792
387,christchurch,-43.5333,172.6333,286.19,78,75,4.12,NZ,1686620793
388,tsiombe,-25.3,45.4833,290.24,96,13,2.73,MG,1686620793
389,labrador city,52.9463,-66.9114,285.1,71,20,0.0,CA,1686620793
390,ulladulla,-35.35,150.4667,291.64,46,100,4.52,AU,1686620794
391,retreat,38.8245,-85.8533,289.37,71,0,1.93,US,1686620794
392,spisska nova ves,48.9446,20.5615,279.7,94,100,2.64,SK,1686620794
393,naracoorte,-36.9579,140.7383,285.87,75,100,7.62,AU,1686620794
394,volksrust,-27.3654,29.8818,277.35,82,0,3.33,ZA,1686620795
395,zheleznodorozhnyy,55.7503,38.0042,281.9,75,0,2.6,RU,1686620795
396,lesosibirsk,58.2358,92.4828,287.03,62,52,3.55,RU,1686620795
397,sangmelima,2.9333,11.9833,292.51,100,100,1.41,CM,1686620795
398,gardelegen,52.5252,11.3952,285.82,66,4,2.06,DE,1686620796
399,sur,22.5667,59.5289,305.78,46,100,3.03,OM,1686620796
400,keetmanshoop,-26.5833,18.1333,278.66,81,0,1.03,NA,1686620796
401,tinajo,29.0788,-13.7081,294.64,78,20,4.12,ES,1686620796
402,mizdah,31.4451,12.9801,295.71,45,0,2.49,LY,1686620797
403,bardsir,29.9227,56.5743,295.56,35,10,1.44,IR,1686620797
404,chernyshevskiy,63.0128,112.4714,288.83,31,2,1.08,RU,1686620797
405,fuxin,42.0156,121.6589,296.39,47,3,3.39,CN,1686620798
406,shahgarh,24.3167,79.1333,308.52,33,39,6.69,IN,1686620798
407,bako,5.7833,36.5667,290.5,85,96,1.55,ET,1686620798
408,ak-dovurak,51.1833,90.6,288.74,56,13,0.04,RU,1686620799
409,maisi,43.0395,41.2621,288.9,90,86,1.96,GE,1686620799
410,newborough,52.6389,-0.2233,287.58,91,9,4.12,GB,1686620799
411,datong,40.0936,113.2914,296.52,29,0,4.99,CN,1686620799
412,nagqu,31.5,92.0,281.27,60,100,3.77,CN,1686620800
413,port hedland,-20.3167,118.5667,296.18,23,40,8.75,AU,1686620800
414,macenta,8.5435,-9.471,293.74,100,99,0.66,GN,1686620801
415,kerikeri,-35.2268,173.9474,290.32,68,1,2.68,NZ,1686620801
416,kargat,55.1956,80.2811,286.05,52,100,2.18,RU,1686620801
417,thames,-37.1333,175.5333,286.22,62,0,2.68,NZ,1686620801
418,tharangambadi,11.0319,79.8528,302.15,67,100,5.91,IN,1686620802
419,remire-montjoly,4.9167,-52.2667,298.17,94,100,1.03,GF,1686620802
420,pleiku,13.9833,108.0,295.28,94,100,3.58,VN,1686620802
421,bondoukou,8.0333,-2.8,293.81,97,91,2.14,CI,1686620803
422,ouani,-12.1322,44.4258,297.68,74,13,1.65,KM,1686620803
423,mossendjo,-2.9506,12.7261,293.0,100,68,0.81,CG,1686620803
424,beidaihehaibin,39.8222,119.5181,294.35,58,21,3.24,CN,1686620803
425,tamandare,-8.7597,-35.1047,298.11,84,14,4.71,BR,1686620804
426,urzhar,47.093,81.6294,296.4,28,90,2.92,KZ,1686620804
427,sakaiminato,35.55,133.2333,299.11,88,40,3.6,JP,1686620805
428,yeed,4.55,43.0333,296.02,65,100,7.53,SO,1686620805
429,auki,-8.7676,160.7034,301.56,78,30,1.51,SB,1686620805
430,kyzyl-suu,42.3414,78.0056,291.97,54,91,0.87,KG,1686620805
431,san pedro pochutla,15.7333,-96.4667,299.49,84,33,2.0,MX,1686620806
432,taoudenni,22.6783,-3.9836,306.87,11,59,3.81,ML,1686620806
433,tabou,4.423,-7.3528,298.4,76,94,3.42,CI,1686620806
434,kurumkan,54.3,110.3,286.5,63,100,0.46,RU,1686620807
435,umm kaddadah,13.6017,26.6876,302.93,46,45,1.49,SD,1686620807
436,sitka,57.0531,-135.33,285.09,62,100,7.2,US,1686620667
437,akureyri,65.6835,-18.0878,281.11,81,0,2.57,IS,1686620626
438,inhambane,-23.865,35.3833,292.63,89,51,3.09,MZ,1686620808
439,axim,4.8699,-2.2405,298.22,70,77,2.55,GH,1686620808
440,puerto aysen,-45.4,-72.7,274.34,97,100,1.33,CL,1686620808
441,puerto cabezas,14.0351,-83.3888,300.5,87,66,4.22,NI,1686620808
442,lamu,-2.2717,40.902,298.27,78,16,5.8,KE,1686620809
443,porto novo,6.4965,2.6036,300.05,81,100,2.7,BJ,1686620809
444,ust'-barguzin,53.45,108.9833,282.07,97,100,1.76,RU,1686620809
445,enoch,37.7733,-113.0244,290.45,45,0,4.12,US,1686620809
446,weno,7.4515,151.8468,304.12,74,75,6.69,FM,1686620810
447,calabozo,8.9242,-67.4293,298.62,81,10,0.68,VE,1686620810
448,kununurra,-15.7667,128.7333,303.14,26,28,5.14,AU,1686620810
449,vredendal,-31.6683,18.5012,285.8,83,99,3.97,ZA,1686620810
450,ballina,-28.8667,153.5667,295.81,63,3,3.29,AU,1686620811
451,ponta delgada,37.7333,-25.6667,292.55,100,75,5.14,PT,1686620811
452,douz,33.4663,9.0203,300.53,46,20,10.07,TN,1686620811
453,griffith,41.5284,-87.4237,290.54,58,100,2.06,US,1686620544
454,lokhvytsya,50.3678,33.2602,284.75,82,100,4.22,UA,1686620812
455,al qusiyah,27.4402,30.8184,302.3,28,3,3.62,EG,1686620812
456,muynoq,43.7683,59.0214,297.75,39,3,4.47,UZ,1686620812
457,nemuro,43.3236,145.575,285.2,97,100,4.61,JP,1686620739
458,shenjiamen,29.9576,122.298,295.61,92,100,3.22,CN,1686620813
459,pontian kechil,1.4866,103.3896,302.35,91,98,4.58,MY,1686620813
460,konarka,19.9,86.1167,300.37,71,94,2.05,IN,1686620813
461,sao gabriel da cachoeira,-0.1303,-67.0892,299.04,77,100,0.65,BR,1686620814
462,gamba,-2.65,10.0,296.2,93,100,2.02,GA,1686620814
463,bac lieu,9.285,105.7244,303.46,66,98,4.86,VN,1686620814
464,kolpashevo,58.3131,82.9089,283.98,59,21,4.82,RU,1686620815
465,bardai,11.65,7.2333,295.65,85,53,3.16,NG,1686620815
466,victoria,22.2855,114.1577,306.59,78,92,1.79,HK,1686620815
467,marsabit,2.3284,37.9899,288.68,81,89,5.77,KE,1686620815
468,nieuw amsterdam,5.8833,-55.0833,299.83,89,100,3.74,SR,1686620816
469,itagi,-14.1628,-40.0061,291.83,99,27,0.42,BR,1686620816
470,flagstaff,35.1981,-111.6513,291.26,39,75,6.69,US,1686620808
471,trinidad,-14.8333,-64.9,283.8,91,100,4.73,BO,1686620816
472,luderitz,-26.6481,15.1594,285.73,81,0,5.18,NA,1686620817
473,okhotsk,59.3833,143.3,281.65,85,87,5.35,RU,1686620817
474,coalcoman de vazquez pallares,18.7833,-103.15,296.81,64,10,1.82,MX,1686620817
475,joshimath,30.5667,79.5667,295.02,59,30,0.63,IN,1686620817
476,matoury,4.8483,-52.3317,298.13,94,100,1.03,GF,1686620818
477,muroto-misakicho,33.2833,134.15,296.09,81,100,1.33,JP,1686620818
478,peace river,56.2501,-117.286,298.32,41,100,3.6,CA,1686620818
479,broome,42.2506,-75.833,291.18,89,100,4.63,US,1686620818
480,celestun,20.8667,-90.4,301.74,81,0,5.97,MX,1686620819
481,mandan,46.8267,-100.8896,299.14,47,0,4.12,US,1686620819
482,bubaque,11.2833,-15.8333,299.37,85,100,4.77,GW,1686620819
483,rio grande,-32.035,-52.0986,277.21,65,6,3.88,BR,1686620819
484,leshan,29.5623,103.7639,300.79,50,91,0.86,CN,1686620820
485,tobelo,1.7284,128.0095,300.64,80,100,1.9,ID,1686620820
486,olinda,-8.0089,-34.8553,299.0,89,75,3.09,BR,1686620820
487,eau claire,44.8114,-91.4985,290.36,68,100,0.89,US,1686620821
488,nizhniy odes,63.6445,54.856,285.46,80,100,3.49,RU,1686620821
489,kapa'a,22.0752,-159.319,302.14,77,40,6.17,US,1686620821
490,saint-philippe,-21.3585,55.7679,294.92,75,0,1.71,RE,1686620822
491,st. john's,47.5649,-52.7093,281.3,94,100,9.26,CA,1686620822
492,zhu cheng city,35.995,119.4026,301.99,32,7,4.22,CN,1686620823
493,vilhena,-12.7406,-60.1458,292.52,99,94,2.36,BR,1686620823
494,bhamo,24.2667,97.2333,300.33,85,79,0.72,MM,1686620823
495,salinopolis,-0.6136,-47.3561,299.36,86,100,5.58,BR,1686620823
496,ashburton,-37.8626,145.0794,287.76,75,100,3.13,AU,1686620824
497,san clemente,33.427,-117.612,293.46,82,20,1.79,US,1686620824
498,dongkan,33.9997,119.8308,301.31,34,100,1.31,CN,1686620824
499,cheongsong gun,36.4335,129.057,297.19,67,94,0.43,KR,1686620825
500,greenville,35.6127,-77.3663,296.24,98,100,1.54,US,1686620783
501,grand falls-windsor,48.9332,-55.6649,283.43,87,95,1.41,CA,1686620825
502,nicoya,10.1483,-85.452,299.38,87,93,0.74,CR,1686620825
503,barleben,52.2019,11.6177,285.82,71,0,0.79,DE,1686620826
504,nizhneangarsk,55.7833,109.55,285.73,46,100,3.26,RU,1686620826
505,kutum,14.2,24.6667,297.84,50,100,2.46,SD,1686620826
506,gilgit,35.9221,74.3087,295.81,54,100,0.61,PK,1686620651
507,ruidoso,33.3317,-105.673,295.91,10,0,8.23,US,1686620827
508,sisimiut,66.9395,-53.6735,272.68,86,21,3.05,GL,1686620827
509,madang,-5.2246,145.7966,303.32,68,42,2.8,PG,1686620827
510,lincoln city,44.9582,-124.0179,295.85,78,0,8.49,US,1686620828
511,tarifa,36.0139,-5.607,294.16,92,47,5.89,ES,1686620828
512,kokopo,-4.352,152.2633,303.45,64,13,5.01,PG,1686620828
513,floro,61.5996,5.0328,287.13,67,100,2.57,NO,1686620828
514,sulechow,52.0836,15.6251,286.29,40,39,2.15,PL,1686620540
515,kone,-21.0595,164.8658,299.46,47,10,2.1,NC,1686620829
516,alamogordo,32.8995,-105.9603,302.01,10,0,5.14,US,1686620814
517,mili,6.0815,171.735,301.55,80,100,7.7,MH,1686620829
518,novyye lapsary,56.0685,47.2142,280.99,76,0,2.0,RU,1686620829
519,chingola,-12.529,27.8838,288.15,53,67,1.24,ZM,1686620830
520,pudozh,61.8099,36.5345,282.62,67,100,2.32,RU,1686620830
521,dawei,14.0833,98.2,300.61,86,100,2.61,MM,1686620830
522,abalak,58.1286,68.5944,283.03,49,6,2.87,RU,1686620831
523,gaoping,30.7758,106.1029,299.66,67,100,2.81,CN,1686620831
524,beira,-19.8436,34.8389,292.2,93,0,3.13,MZ,1686620831
525,greymouth,-42.4667,171.2,286.08,58,13,1.38,NZ,1686620831
526,podgornoye,51.735,39.1496,283.27,71,0,4.0,RU,1686620832
527,erbil,36.1926,44.0106,296.05,28,0,3.09,IQ,1686620619
528,jieshi,22.8134,115.8257,301.79,74,98,3.36,CN,1686620832
529,gowurdak,37.8124,66.0466,303.9,18,4,1.93,TM,1686620833
530,chibougamau,49.9168,-74.3659,292.94,56,0,3.09,CA,1686620833
531,kropyvnytskyi,48.5132,32.2597,284.64,95,100,4.72,UA,1686620833
532,okha,53.5739,142.9478,281.46,88,99,3.96,RU,1686620833
533,quellon,-43.1167,-73.6167,275.29,93,75,1.54,CL,1686620834
534,maragogi,-9.0122,-35.2225,297.78,86,27,4.54,BR,1686620834
535,faya-largeau,17.9257,19.1043,305.16,36,5,1.79,TD,1686620834
536,hauterive,46.0901,3.4459,288.57,97,99,0.86,FR,1686620834
537,yaren,-0.5472,166.916,301.71,75,99,3.51,NR,1686620835
538,ambato boeny,-16.4667,46.7167,290.58,72,0,1.15,MG,1686620835
539,vernon,50.2581,-119.2691,306.35,27,33,1.54,CA,1686620835
540,las vegas,36.175,-115.1372,302.84,26,0,8.94,US,1686620280
541,kamyzyak,46.11,48.0736,294.14,68,0,2.0,RU,1686620836
542,krasnokamsk,58.0802,55.7541,281.24,62,0,1.34,RU,1686620836
543,kandahar,31.0,65.75,298.61,16,0,2.21,AF,1686620622
544,mount pearl,47.5166,-52.7813,280.84,94,100,9.26,CA,1686620836
545,tamanrasset,22.785,5.5228,301.1,28,40,1.54,DZ,1686620837
546,ploneour-lanvern,47.9,-4.2833,287.31,100,0,4.12,FR,1686620837
547,tlaltenango de sanchez roman,21.7833,-103.3167,301.87,22,72,2.64,MX,1686620837
548,westport,41.1415,-73.3579,293.3,92,100,3.6,US,1686620643
549,siwa oasis,29.2041,25.5195,299.44,40,0,6.86,EG,1686620837
550,carmi,38.0909,-88.1587,290.53,67,38,2.41,US,1686620838
551,orocovis,18.2271,-66.3917,298.16,97,16,1.39,PR,1686620838
552,djambala,-2.5447,14.7533,293.22,93,82,1.62,CG,1686620838
553,antofagasta,-23.65,-70.4,288.75,80,48,2.71,CL,1686620839
554,infantes,38.7367,-3.0122,290.94,53,94,3.4,ES,1686620839
555,tadine,-21.55,167.8833,295.76,63,52,5.5,NC,1686620839
556,chernogorsk,53.8236,91.2842,289.91,72,0,2.0,RU,1686620839
557,kavieng,-2.5744,150.7967,302.41,74,66,4.81,PG,1686620840
558,salmon arm,50.6998,-119.3024,305.77,35,60,0.51,CA,1686620840
559,saint-pierre,-21.3393,55.4781,295.69,73,0,2.06,RE,1686620840
560,richmond,37.5538,-77.4603,297.08,82,40,3.09,US,1686620130
561,nuku'alofa,-21.1333,-175.2,295.34,88,75,1.03,TO,1686620840
562,mugia,43.1041,-9.2179,290.46,95,100,2.31,ES,1686620841
563,suva,-18.1416,178.4415,296.86,94,75,0.0,FJ,1686620740
564,xingcheng,40.6167,120.7167,294.88,56,15,2.91,CN,1686620841
565,ust'-ordynskiy,52.805,104.7508,286.26,89,100,3.09,RU,1686620842
